{
  "notice-1": {
    "location": "HOME",
    "hint": "Dort, wo das Langhalstier wohnt, wirst mit dem nächsten Hinweis du belohnt.",
    "lat": 47.27750222947037,
    "lon": 11.405683364728462
  },
  "notice-2": {
    "location": "HUTTERERPARK",
    "hint": "Dort, wo die Liebesschlösser am nächsten hängen, soll's deine Liebe zum nächsten Tipp auch bringen.",
    "lat": 47.27846741057058,
    "lon": 11.401266818145807
  },
  "notice-3": {
    "location": "HANS-PSENNER-STEG",
    "hint": "Am Anfang vom Wald, wo ein Bankerl' dich lädt, liegt der Hinweis, mit dem's weitergeht.",
    "lat": 47.278360309790514,
    "lon": 11.399679612427308
  },
  "notice-4": {
    "location": "HANS-ZÖBL-RUHE",
    "hint": "Wenn's schneller geht, dann macht's mehr Spaß, also geh hinauf in Richtung Alpenzoo und merk dir das.",
    "lat": 47.27968001589635,
    "lon": 11.400454727786219
  },
  "notice-5": {
    "location": "ABKÜRZUNG",
    "hint": "Zum Rutschen macht's zwar nur im Winter Spaß, aber heute heute essen wir dafür da was.",
    "lat": 47.27997949387221,
    "lon": 11.399147041967954
  },
  "notice-6": {
    "location": "Spiel- & Liegewiese – Brunch",
    "hint": "Dort, wo auch die Stämme warten, kannst du mit dem nächsten Tipp gleich durchstarten-",
    "lat": 47.28052099784376,
    "lon": 11.399168013248396
  },
  "notice-7": {
    "location": "Holzhütte",
    "hint": "Dort, wo Schienen in den Schatten gehen, wirst du deinen nächsten Hinweis sehen.",
    "lat": 47.28064954406762,
    "lon": 11.399481214871951
  },
  "notice-8": {
    "location": "Krezung Heinrich-Süß-Weg",
    "hint": "Geht hinauf die langen Treppen, <b>ganz</b> oben wird euch der nächste Tipp schon retten.",
    "lat": 47.28183250162791,
    "lon": 11.400261890402076
  },
  "notice-9": {
    "location": "Hungerburgbahn – Station Hungerburg",
    "hint": "Zum Parkplatz rauf', dem Bus hinterher, bis zur Kirche bitte sehr.",
    "lat": 47.28619124743036,
    "lon": 11.39702300629118
  },
  "notice-10": {
    "location": "Wallfahrtskirche",
    "hint": "Weiter geht's nun im schnellen Schritt, bis zum Umbrückleralmweg am Waldrand, dort gibt's den nächsten Tipp.",
    "lat": 47.28612688205788,
    "lon": 11.388717098040267
  },
  "notice-11": {
    "location": "Umbrückleralmweg - Waldrand",
    "hint": "Wo ist eingeschränkter Winterdienst, wirst mit dem nächsten Tipp begriaßt.",
    "lat": 47.28796540177149,
    "lon": 11.386721992481311
  },
  "notice-12": {
    "location": "Kreuzung: Maria-Almweg - Umbrückleralmweg",
    "hint": "Dort, wo links die Häuser stehen, machst a kurze Pause vorm Weitergehen.",
    "lat": 47.28618775985356,
    "lon": 11.388648100398509
  },
  "notice-13": {
    "location": "Umbrückleralmweg - Abzweigung 27",
    "hint": "Gleich ist's aus, die letzten Schritt, bringen dich nun zur Alm um die Brüggler' mit Tritt.",
    "lat": 47.289059405859994,
    "lon": 11.385462124421636
  },
  "notice-14": {
    "location": "Umbrückleralm",
    "hint": "'Falls du nun hier her gekommen bist, um dein Geschenk zu kriegen, muss ich dich enttäuschen, denn das ist zuhause. Weißt du noch den Weg zurück? Um es zu erreichen, musst du ein neues Kennwort am Schluss eingeben: HB-44-e",
    "lat": 47.29256588262073,
    "lon": 11.379245686162491
  }
}